[
	{
		"name": {
			"title": "Mr",
			"first": "John",
			"last": "Smith"
		},
		"location": {
			"city": "London",
			"country": "United Kingdom"
		},
		"phone": "+44 20 7555 1212",
		"picture": "https://randomuser.me/api/portraits/men/75.jpg"
	},
	{
		"name": {
			"title": "Ms",
			"first": "Sarah",
			"last": "Jones"
		},
		"location": {
			"city": "Paris",
			"country": "France"
		},
		"phone": "+33 1 45 67 89 10",
		"picture": "https://randomuser.me/api/portraits/women/75.jpg"
	},
	{
		"name": {
			"title": "Mr",
			"first": "Peter",
			"last": "Williams"
		},
		"location": {
			"city": "Berlin",
			"country": "Germany"
		},
		"phone": "+49 30 123 4567",
		"picture": "https://randomuser.me/api/portraits/men/76.jpg"
	},
	{
		"name": {
			"title": "Ms",
			"first": "Olivia",
			"last": "Brown"
		},
		"location": {
			"city": "Madrid",
			"country": "Spain"
		},
		"phone": "+34 91 123 4567",
		"picture": "https://randomuser.me/api/portraits/women/76.jpg"
	},
	{
		"name": {
			"title": "Mr",
			"first": "Michael",
			"last": "Wilson"
		},
		"location": {
			"city": "Rome",
			"country": "Italy"
		},
		"phone": "+39 06 123 4567",
		"picture": "https://randomuser.me/api/portraits/men/77.jpg"
	},
	{
		"name": {
			"title": "Ms",
			"first": "Elizabeth",
			"last": "Garcia"
		},
		"location": {
			"city": "Lisbon",
			"country": "Portugal"
		},
		"phone": "+351 21 123 4567",
		"picture": "https://randomuser.me/api/portraits/women/77.jpg"
	},
	{
		"name": {
			"title": "Mr",
			"first": "David",
			"last": "Miller"
		},
		"location": {
			"city": "Amsterdam",
			"country": "Netherlands"
		},
		"phone": "+31 20 123 4567",
		"picture": "https://randomuser.me/api/portraits/men/78.jpg"
	},
	{
		"name": {
			"title": "Ms",
			"first": "Jessica",
			"last": "Moore"
		},
		"location": {
			"city": "Dublin",
			"country": "Ireland"
		},
		"phone": "+353 1 123 4567",
		"picture": "https://randomuser.me/api/portraits/women/78.jpg"
	},
	{
		"name": {
			"title": "Mr",
			"first": "Robert",
			"last": "Taylor"
		},
		"location": {
			"city": "Copenhagen",
			"country": "Denmark"
		},
		"phone": "+45 33 123 4567",
		"picture": "https://randomuser.me/api/portraits/men/79.jpg"
	},
	{
		"name": {
			"title": "Ms",
			"first": "Ashley",
			"last": "Martin"
		},
		"location": {
			"city": "Stockholm",
			"country": "Sweden"
		},
		"phone": "+46 8 123 4567",
		"picture": "https://randomuser.me/api/portraits/women/79.jpg"
	}
]